City,Lat,Long,Max Temp,Humidity,Cloudiness,Wind Speed,Country,Date
Ponta do Sol,32.6667,-17.1,287.59,65,7,0.89,PT,1620269283
Bredasdorp,-34.5322,20.0403,288.15,92,100,2.24,ZA,1620269284
Conde,-7.2597,-34.9075,297.15,94,40,2.06,BR,1620269284
Port Elizabeth,-33.918,25.5701,290.15,94,20,5.66,ZA,1620269284
Bengkulu,-3.8004,102.2655,299.47,84,100,1.08,ID,1620269666
Cabedelo,-6.9811,-34.8339,297.15,94,40,2.06,BR,1620269667
Natal,-5.795,-35.2094,297.15,94,20,2.06,BR,1620269164
Wanning,18.8003,110.3967,303.19,67,100,3.79,CN,1620269285
Tura,25.5198,90.2201,301.98,51,72,0.58,IN,1620269104
Rikitea,-23.1203,-134.9692,298.48,80,100,4.7,PF,1620269667
Puerto Ayora,-0.7393,-90.3518,297.04,93,2,1.79,EC,1620269668
Mandalgovi,45.7625,106.2708,274.95,31,15,15.75,MN,1620269668
Lata,40.1629,-8.3327,287.59,92,98,1.01,PT,1620269668
Sindou,10.6667,-5.1667,301.3,52,100,1.96,BF,1620269668
Yerbogachën,61.2767,108.0108,276.54,59,100,3.69,RU,1620269669
Chakwal,32.9334,72.8585,299.74,39,51,2.89,PK,1620269669
Lüderitz,-26.6481,15.1594,286.88,82,7,6.34,NA,1620269288
Senanga,-16.1167,23.2667,288.43,63,10,2.49,ZM,1620269288
Souillac,-20.5167,57.5167,296.15,94,75,2.06,MU,1620269288
Khatanga,71.9667,102.5,273.84,93,91,3.82,RU,1620269289
Mataura,-46.1927,168.8643,285.93,94,78,2.24,NZ,1620269289
Busselton,-33.65,115.3333,291.48,91,34,0.89,AU,1620269289
Tautira,-17.7333,-149.15,303.15,70,20,6.17,PF,1620269289
San Rafael,-34.6177,-68.3301,284.1,50,0,1.78,AR,1620269290
Priladozhskiy,59.85,31.4833,277.04,84,100,3.87,RU,1620269290
Pacific Grove,36.6177,-121.9166,286.15,76,90,3.09,US,1620269061
Sisimiut,66.9395,-53.6735,272.47,76,97,1.79,GL,1620269290
Salinas,36.6777,-121.6555,286.15,76,90,4.63,US,1620269008
Ancud,-41.8697,-73.8203,278.15,100,90,2.06,CL,1620269291
New Norfolk,-42.7826,147.0587,292.04,67,10,0.89,AU,1620269291
Skibbereen,51.55,-9.2667,277.15,75,75,4.12,IE,1620269291
Shubarkuduk,49.1447,56.4872,283.01,54,64,4.31,KZ,1620269292
Atuona,-9.8,-139.0333,300.1,79,27,9.2,PF,1620269292
Clyde River,70.4692,-68.5914,265.15,93,1,1.03,CA,1620269292
Lebu,-37.6167,-73.65,285.04,79,2,2.65,CL,1620269292
Hobart,-42.8794,147.3294,292.04,55,40,5.66,AU,1620269179
Shenjiamen,29.9576,122.298,291.37,78,58,5.97,CN,1620269293
Erzin,36.9559,36.2,292.59,92,76,0.27,TR,1620269293
Pisco,-13.7,-76.2167,292.15,82,78,1.54,PE,1620269293
Flin Flon,54.7682,-101.865,272.84,76,7,3.02,CA,1620269294
Punta Arenas,-53.15,-70.9167,280.15,81,0,5.66,CL,1620269048
Tateyama,34.9833,139.8667,293.71,83,75,3.6,JP,1620269294
Cairns,-16.9167,145.7667,302.59,51,46,1.54,AU,1620269294
La Macarena,2.1837,-73.7849,295.65,97,100,1.18,CO,1620269295
Napier City,-39.4833,176.9167,291.48,71,34,1.34,NZ,1620269295
Kapaa,22.0752,-159.319,297.15,78,90,7.2,US,1620269295
Bethel,41.3712,-73.414,284.82,92,100,3.93,US,1620269296
Gorgan,36.8387,54.4348,289.15,94,75,1.48,IR,1620269296
Sitka,57.0531,-135.33,285.15,50,90,3.6,US,1620269296
Kailua,21.4022,-157.7394,300.15,69,90,5.14,US,1620269297
Mar del Plata,-38.0023,-57.5575,283.15,87,0,4.63,AR,1620269297
Ushuaia,-54.8,-68.3,279.15,70,20,10.29,AR,1620269137
Lompoc,34.6391,-120.4579,287.59,82,7,4.12,US,1620269012
Iqaluit,63.7506,-68.5145,273.15,86,90,4.63,CA,1620269297
Margate,51.3813,1.3862,276.48,82,100,3.71,GB,1620269298
Mpika,-11.8343,31.4529,285.65,94,9,2.96,ZM,1620269298
Gorontalo,0.5412,123.0595,303.95,68,93,1.79,ID,1620269298
Castro,-24.7911,-50.0119,289.05,60,87,1.89,BR,1620269299
Pevek,69.7008,170.3133,273.87,76,97,2.56,RU,1620269299
Saskylakh,71.9167,114.0833,273.04,93,100,3.33,RU,1620269299
Saint Paul Harbor,57.79,-152.4072,280.15,65,40,4.63,US,1620269299
Szczytno,53.5626,20.9875,279.15,75,75,6.17,PL,1620269300
Ilulissat,69.2167,-51.1,271.15,86,75,1.03,GL,1620269300
Esperance,-33.8667,121.9,293.15,73,51,5.14,AU,1620269300
Hong Kong,22.2855,114.1577,298.71,80,89,2.68,HK,1620269103
Vaini,-21.2,-175.2,298.15,94,90,2.57,TO,1620269301
Kulu,39.0951,33.0799,286.66,59,99,2.92,TR,1620269301
Batagay,67.6333,134.6333,277.45,76,100,1.44,RU,1620269301
Staraya Mayna,54.6,48.95,281.15,61,88,3.0,RU,1620269301
Torbay,47.6666,-52.7314,275.93,86,40,3.6,CA,1620269302
Esim,4.8699,-2.2405,300.15,80,97,3.58,GH,1620269302
Amahai,-3.3333,128.9167,302.08,74,100,1.88,ID,1620269302
San Patricio,28.017,-97.5169,297.15,73,1,2.06,US,1620269303
Ribeira Grande,38.5167,-28.7,290.0,92,38,6.86,PT,1620269303
Bluff,-46.6,168.3333,285.93,94,86,2.24,NZ,1620269303
Bjørnevatn,69.6672,29.9847,272.15,100,90,1.03,NO,1620269304
Hilo,19.7297,-155.09,297.15,78,40,4.12,US,1620269224
Arraial do Cabo,-22.9661,-42.0278,295.92,85,1,1.77,BR,1620269304
Boulder,40.0833,-105.3505,285.15,58,1,3.44,US,1620269304
Severo-Kuril'sk,50.6789,156.125,275.8,85,100,2.85,RU,1620269305
Rach Gia,10.0167,105.0833,304.15,70,40,4.63,VN,1620269305
Saint-Philippe,-21.3585,55.7679,297.15,88,75,0.76,RE,1620269305
Flinders,-34.5833,150.8552,293.71,94,100,3.13,AU,1620269306
Barrow,71.2906,-156.7887,264.15,79,90,3.6,US,1620269306
Vila Franca do Campo,37.7167,-25.4333,290.15,94,75,1.03,PT,1620269306
Klaksvík,62.2266,-6.589,276.15,70,75,12.86,FO,1620269306
Dikson,73.5069,80.5464,267.13,89,82,2.85,RU,1620269307
Mudgee,-32.5943,149.5871,294.15,60,90,5.66,AU,1620269063
Panórama,40.5878,23.0315,290.37,65,2,0.45,GR,1620269307
Wiarton,44.7407,-81.1332,278.15,81,20,4.63,CA,1620269307
Provideniya,64.3833,-173.3,274.15,64,0,4.0,RU,1620269308
Luganville,-15.5333,167.1667,301.92,71,26,2.55,VU,1620269308
Suda,59.1525,37.5582,277.15,81,75,3.0,RU,1620269308
Airai,-8.9266,125.4092,295.52,63,70,1.78,TL,1620269309
Ganzhou,28.8184,115.4327,292.98,75,100,0.5,CN,1620269309
Albany,42.6001,-73.9662,283.15,76,100,6.71,US,1620269309
Kuusamo,65.9667,29.1833,271.15,74,90,2.06,FI,1620269309
Barranca,-10.75,-77.7667,292.35,83,91,2.84,PE,1620269310
São João da Barra,-21.6403,-41.0511,296.07,86,0,3.66,BR,1620269310
Nikolskoye,59.7035,30.7861,278.15,93,75,4.0,RU,1620269310
Chui,-33.6971,-53.4616,284.29,63,83,3.29,UY,1620269311
Half Moon Bay,37.4636,-122.4286,287.59,93,90,2.57,US,1620269311
Popondetta,-8.7537,148.2534,303.42,66,59,2.56,PG,1620269311
Cape Town,-33.9258,18.4232,287.59,94,20,9.77,ZA,1620269312
Hasaki,35.7333,140.8333,294.26,56,75,7.2,JP,1620269312
Kalemie,-5.9475,29.1947,293.95,86,21,0.77,CD,1620269312
Cherskiy,68.75,161.3,272.92,89,69,1.21,RU,1620269313
Oriximiná,-1.7656,-55.8661,296.37,93,100,1.31,BR,1620269313
Santiago de Cao,-7.9589,-79.2392,292.15,88,90,4.63,PE,1620269313
Jamestown,42.097,-79.2353,279.82,81,90,5.14,US,1620269189
Palmer,42.1584,-72.3287,285.15,87,90,4.12,US,1620269314
Nikki,9.9401,3.2108,297.71,74,85,4.93,BJ,1620269314
Alofi,-19.0595,-169.9187,298.15,100,90,3.09,NU,1620269314
George Town,5.4112,100.3354,302.15,83,20,0.51,MY,1620269315
Kindu,-2.95,25.95,292.72,99,99,0.29,CD,1620269315
Saint Lawrence,36.0553,14.204,289.26,88,0,2.57,MT,1620269315
Zhangjiakou,40.81,114.8794,286.22,16,13,10.82,CN,1620269315
Carnarvon,-24.8667,113.6333,293.15,88,90,4.12,AU,1620269316
Petropavlovsk-Kamchatskiy,53.0452,158.6483,282.15,66,64,7.0,RU,1620269316
Ahar,38.4774,47.0699,281.68,90,94,2.5,IR,1620269107
Bambanglipuro,-7.95,110.2833,303.2,67,100,3.77,ID,1620269316
Katsuura,35.1333,140.3,293.71,83,75,3.6,JP,1620269317
Kieta,-6.2167,155.6333,303.02,67,96,1.69,PG,1620269317
Krasnokholmskiy,55.9873,55.0466,278.82,78,11,6.78,RU,1620269317
Grand Gaube,-20.0064,57.6608,297.59,92,33,3.28,MU,1620269317
Kenora,49.8167,-94.4337,279.15,42,40,3.6,CA,1620269318
Viga,13.8719,124.3091,302.29,79,90,4.72,PH,1620269318
Cheney,47.4874,-117.5758,294.15,23,90,4.63,US,1620269318
Richards Bay,-28.783,32.0377,290.71,92,3,1.55,ZA,1620269319
Youghal,51.95,-7.8506,277.59,83,100,1.79,IE,1620269319
San Vito,8.8208,-82.9709,291.48,91,100,1.18,CR,1620269319
Cravo Norte,6.3017,-70.2041,300.19,72,100,1.53,CO,1620269320
Leningradskiy,69.3833,178.4167,272.52,78,100,3.24,RU,1620269320
Djebeniana,35.035,10.9081,292.15,68,20,3.09,TN,1620269320
Talnakh,69.4865,88.3972,269.95,92,85,1.84,RU,1620269321
Monrovia,6.3005,-10.7969,297.15,94,75,3.98,LR,1620269321
Pangnirtung,66.1451,-65.7125,268.28,88,42,3.13,CA,1620269321
Pontian Kecil,1.4801,103.3899,303.15,84,20,1.03,MY,1620269322
East London,-33.0153,27.9116,291.39,66,0,2.68,ZA,1620269322
Tilichiki,60.4667,166.1,270.69,80,52,4.66,RU,1620269322
Dawlatabad,36.4141,64.9053,289.68,85,100,0.55,AF,1620269323
Avarua,-21.2078,-159.775,298.15,78,90,2.57,CK,1620269323
Pontianak,-0.0333,109.3333,297.86,91,100,2.26,ID,1620269323
Mahébourg,-20.4081,57.7,296.15,94,75,2.06,MU,1620269323
Valparaíso,-33.0393,-71.6273,288.15,82,0,1.54,CL,1620269032
Hithadhoo,-0.6,73.0833,302.12,64,100,1.61,MV,1620269324
Chokurdakh,70.6333,147.9167,272.2,85,99,2.58,RU,1620269324
Cabo San Lucas,22.8909,-109.9124,297.04,53,1,4.12,MX,1620269178
Tommot,58.9564,126.2925,276.06,99,100,0.96,RU,1620269325
Abu Samrah,35.3029,37.1841,291.47,50,69,5.79,SY,1620269325
Pine Bluff,34.2284,-92.0032,290.15,63,1,2.12,US,1620269061
Tucumcari,35.1717,-103.725,296.15,27,1,5.66,US,1620269325
Salalah,17.0151,54.0924,301.15,89,75,1.03,OM,1620269326
Marondera,-18.1853,31.5519,281.13,67,1,1.17,ZW,1620269234
Batemans Bay,-35.7167,150.1833,292.04,96,100,0.45,AU,1620269326
Sioux Lookout,50.1001,-91.917,277.15,56,75,1.03,CA,1620269326
Butaritari,3.0707,172.7902,301.72,78,72,8.73,KI,1620269327
Kahului,20.8947,-156.47,300.15,50,20,8.75,US,1620269315
Cidreira,-30.1811,-50.2056,287.98,92,100,3.19,BR,1620269327
Port Alfred,-33.5906,26.891,291.69,73,4,2.04,ZA,1620269327
Jumla,29.2747,82.1838,288.04,64,55,1.84,NP,1620269328
Korla,41.7597,86.1469,296.66,13,0,1.86,CN,1620269328
Namatanai,-3.6667,152.4333,302.85,68,68,2.5,PG,1620269328
Tuatapere,-46.1333,167.6833,285.93,94,79,2.24,NZ,1620269329
Palembang,-2.9167,104.7458,302.15,79,40,1.03,ID,1620269329
Nicoya,10.1483,-85.452,297.15,94,0,1.03,CR,1620269329
San Angelo,31.4638,-100.437,295.15,43,1,2.57,US,1620269247
Vardø,70.3705,31.1107,272.15,93,75,4.12,NO,1620269330
Reyes,-14.3167,-67.3833,294.93,98,85,1.57,BO,1620269330
Upernavik,72.7868,-56.1549,265.68,72,22,2.21,GL,1620269330
Rio Grande,-32.035,-52.0986,284.82,93,100,0.89,BR,1620269085
Pargas,60.3067,22.301,277.59,100,90,1.54,FI,1620269331
Lodja,-3.4833,23.4333,293.2,99,100,0.53,CD,1620269331
Hulan,45.9833,126.6,291.15,34,0,2.0,CN,1620269331
Huarmey,-10.0681,-78.1522,292.72,86,70,3.08,PE,1620269331
Komatipoort,-25.4332,31.9548,285.93,94,86,1.07,ZA,1620269332
Aklavik,68.2191,-135.0107,271.15,80,100,5.14,CA,1620269332
Havre-St-Pierre,50.2334,-63.5986,279.15,81,90,3.09,CA,1620269046
Meadow Lake,34.8014,-106.5436,299.15,7,20,5.14,US,1620269333
Sokoni,-6.4333,39.55,299.54,78,100,8.41,TZ,1620269333
Nouadhibou,20.931,-17.0347,291.15,82,0,9.77,MR,1620269333
Aykhal,66.0,111.5,274.26,100,100,4.46,RU,1620269333
Malbork,54.0359,19.0266,279.82,100,100,9.52,PL,1620269334
College,64.8569,-147.8028,286.15,54,75,1.54,US,1620269242
Maumere,-8.6199,122.2111,302.66,63,18,2.36,ID,1620269334
Tuktoyaktuk,69.4541,-133.0374,268.15,80,90,2.57,CA,1620269334
Lagos,6.5833,3.75,300.15,83,20,2.06,NG,1620269090
Xiuyan,40.2928,123.2744,292.67,47,68,7.33,CN,1620269335
Tazovsky,67.4667,78.7,269.17,90,100,7.25,RU,1620269335
Ust-Kuyga,70.0167,135.6,272.15,92,96,2.34,RU,1620269336
Rovaniemi,66.5,25.7167,271.15,74,20,2.06,FI,1620269336
Tsaratanana,-16.7833,47.65,294.8,89,1,1.7,MG,1620269336
Faya,18.3851,42.4509,291.15,32,0,1.44,SA,1620269337
Smirnykh,49.75,142.8333,278.62,93,100,4.48,RU,1620269337
Shakawe,-18.3667,21.85,286.98,56,14,2.12,BW,1620269337
Pizarro,4.9533,-77.366,298.95,82,100,0.42,CO,1620269337
Banda Aceh,5.5577,95.3222,301.03,72,100,1.86,ID,1620269338
Presidencia Roque Sáenz Peña,-26.7852,-60.4388,285.93,93,100,1.79,AR,1620269338
Geraldton,-28.7667,114.6,295.15,73,90,5.66,AU,1620269338
Karratha,-20.7377,116.8463,301.29,60,99,2.98,AU,1620269339
Ilek,51.5271,53.3831,282.45,64,0,2.37,RU,1620269339
Illapel,-31.6308,-71.1653,288.49,69,0,0.83,CL,1620269339
Ozernovskiy,51.5,156.5167,278.64,74,100,4.12,RU,1620269340
Brae,60.3964,-1.353,277.15,93,75,3.09,GB,1620269340
Qaanaaq,77.484,-69.3632,270.04,87,100,1.23,GL,1620269340
Lorengau,-2.0226,147.2712,302.78,69,99,2.03,PG,1620269340
Altay,47.8667,88.1167,292.75,28,100,2.03,CN,1620269341
Kautokeino,69.0125,23.0412,262.95,96,98,1.39,NO,1620269341
Boké,10.9409,-14.2967,294.69,83,45,0.71,GN,1620269341
Languyan,5.2618,120.0807,303.6,63,99,1.03,PH,1620269342
Thompson,55.7435,-97.8558,276.15,44,20,4.12,CA,1620269342
Havelock,34.8791,-76.9013,296.48,88,1,2.57,US,1620269342
Acaraú,-2.8856,-40.12,297.09,84,73,2.65,BR,1620269343
Lucapa,-8.4192,20.7447,291.27,97,93,0.91,AO,1620269343
Nanortalik,60.1432,-45.2371,275.71,74,3,1.95,GL,1620269343
Narsaq,60.9167,-46.05,279.15,28,2,2.06,GL,1620269344
Varberg,57.1056,12.2508,276.48,91,100,3.58,SE,1620269344
Gravdal,68.1214,13.5031,277.04,66,100,2.51,NO,1620269345
Viedma,-40.8135,-62.9967,282.7,77,5,3.7,AR,1620269345
Asău,46.4333,26.4,283.15,93,92,5.14,RO,1620269345
Tsovinar,40.157,45.4613,278.31,82,78,2.19,AM,1620269346
Surgut,61.25,73.4167,285.15,58,0,5.0,RU,1620269235
Camacha,33.0833,-16.3333,290.15,67,40,3.6,PT,1620269346
Faanui,-16.4833,-151.75,301.35,75,18,6.04,PF,1620269346
Aasiaat,68.7098,-52.8699,272.14,79,100,3.31,GL,1620269346
Namie,37.4833,141.0,293.15,56,72,0.45,JP,1620269347
Kuressaare,58.2481,22.5039,279.82,87,75,2.06,EE,1620269347
Port Macquarie,-31.4333,152.9167,295.93,73,82,5.63,AU,1620269224
Buala,-8.145,159.5921,303.57,64,29,2.28,SB,1620269348
Longyearbyen,78.2186,15.6401,264.15,73,20,6.17,SJ,1620269348
Evensk,61.95,159.2333,270.97,75,15,0.32,RU,1620269348
Fortuna,40.5982,-124.1573,287.04,87,1,5.14,US,1620269348
Pergamino,-33.89,-60.5736,282.59,64,91,1.74,AR,1620269349
Sukhumi,43.0033,41.0153,286.89,70,42,2.17,GE,1620269349
Kavaratti,10.5669,72.642,302.76,67,88,0.83,IN,1620269349
Luwuk,-0.9516,122.7875,303.35,70,40,1.81,ID,1620269350
Ballarat,-37.5662,143.8496,293.15,68,27,2.0,AU,1620269143
Beringovskiy,63.05,179.3167,271.76,82,100,2.72,RU,1620269350
Kalmunai,7.4167,81.8167,302.43,70,81,0.64,LK,1620269350
Coyhaique,-45.5752,-72.0662,274.15,93,0,1.03,CL,1620269351
Beidao,34.5686,105.8933,294.4,45,35,0.86,CN,1620269351
Arrondissement de Verdun,49.25,5.3333,278.71,92,100,0.45,FR,1620269351
San Cristobal,7.7669,-72.225,299.15,78,75,2.06,VE,1620269352
Comodoro Rivadavia,-45.8667,-67.5,284.15,54,0,1.54,AR,1620269352
Nikel,69.4128,30.222,272.15,100,90,1.03,RU,1620269352
Bambous Virieux,-20.3428,57.7575,297.59,94,75,2.06,MU,1620269352
Aripuanã,-9.1667,-60.6333,295.37,90,34,0.71,BR,1620269353
Jutaí,-5.1833,-68.9,295.79,98,96,0.3,BR,1620269353
Portland,45.5234,-122.6762,300.15,22,90,4.63,US,1620269495
Koslan,63.4564,48.8989,271.62,85,76,4.39,RU,1620269353
Thinadhoo,0.5333,72.9333,302.23,66,100,1.75,MV,1620269354
Mackay,-21.15,149.2,298.15,49,1,5.14,AU,1620269354
Itacoatiara,-3.1431,-58.4442,295.7,93,29,0.51,BR,1620269354
Ulladulla,-35.35,150.4667,291.48,100,90,8.75,AU,1620269355
Kununurra,-15.7667,128.7333,305.15,33,0,4.63,AU,1620269355
Miraflores,19.2167,-98.8083,287.15,94,90,4.63,MX,1620269355
Deniliquin,-35.5333,144.9667,295.37,47,21,2.64,AU,1620269355
Sechura,-5.5569,-80.8222,295.0,73,21,6.36,PE,1620269356
Bafia,4.75,11.2333,293.56,98,100,0.4,CM,1620269356
Hermanus,-34.4187,19.2345,288.15,92,100,2.24,ZA,1620269356
Chiredzi,-21.05,31.6667,286.35,72,0,0.84,ZW,1620269357
Kaitangata,-46.2817,169.8464,286.84,78,78,2.89,NZ,1620269357
California City,35.1258,-117.9859,304.15,12,1,6.17,US,1620269357
Quatre Cocos,-20.2078,57.7625,297.59,94,75,2.06,MU,1620269358
Mayor Pablo Lagerenza,-19.9309,-60.7718,285.77,69,100,5.18,PY,1620269358
Codrington,-38.2667,141.9667,290.07,53,87,3.52,AU,1620269358
Pumiao,22.75,108.4833,296.15,88,90,2.0,CN,1620269359
Ayan,56.45,138.1667,272.89,86,100,11.53,RU,1620269359
Bratsk,56.1325,101.6142,273.15,93,90,4.0,RU,1620269097
Cradock,-32.1642,25.6192,285.63,89,73,0.27,ZA,1620269359
Alice Springs,-23.7,133.8833,296.48,14,98,2.57,AU,1620269359
Port Moresby,-9.4431,147.1797,303.15,70,40,5.14,PG,1620269360
Abonnema,4.7084,6.7931,297.93,91,100,2.09,NG,1620269360
Tasiilaq,65.6145,-37.6368,271.15,80,90,1.03,GL,1620269360
Bonthe,7.5264,-12.505,299.07,84,96,2.32,SL,1620269361
Yellowknife,62.456,-114.3525,280.15,36,20,3.6,CA,1620269331
Kumul,42.8,93.45,298.4,8,54,7.22,CN,1620269361
Saint George,37.1041,-113.5841,304.15,9,1,2.57,US,1620269161
Najrān,17.4924,44.1277,296.15,23,0,2.07,SA,1620269361
Berlevåg,70.8578,29.0864,273.51,83,100,1.95,NO,1620269362
Mount Gambier,-37.8333,140.7667,289.15,63,100,4.63,AU,1620269362
Leh,34.1667,77.5833,279.52,63,20,1.61,IN,1620269363
Bagdarin,54.4333,113.6,282.24,35,34,3.39,RU,1620269363
Lewistown,40.5992,-77.5714,284.15,61,90,5.14,US,1620269363
San Quintín,30.4833,-115.95,290.04,82,1,2.04,MX,1620269169
Saldanha,-33.0117,17.9442,288.67,86,99,8.47,ZA,1620269363
Morón,-34.6534,-58.6198,284.82,71,98,0.45,AR,1620269364
Peleduy,59.6289,112.7406,275.59,99,100,2.28,RU,1620269364
Irkutsk,52.2978,104.2964,280.15,42,0,3.0,RU,1620269364
Guarapari,-20.6667,-40.4975,294.15,94,0,1.54,BR,1620269365
Atar,20.5169,-13.0499,296.76,19,1,4.21,MR,1620269169
Weligama,5.9667,80.4167,301.02,77,99,2.11,LK,1620269365
Madang,-5.2246,145.7966,303.59,66,54,3.02,PG,1620269365
Castro Marim,37.2207,-7.4435,290.37,73,0,2.24,PT,1620269366
Coahuayana Viejo,18.7333,-103.6833,295.41,77,0,0.19,MX,1620269119
Yulara,-25.2406,130.9889,295.15,28,100,1.54,AU,1620269366
Norrköping,58.5942,16.1826,276.15,93,90,4.12,SE,1620269366
Yangi Marg`ilon,40.4272,71.7189,292.15,82,40,2.27,UZ,1620269367
San Andrés,12.5847,-81.7006,300.31,76,69,6.9,CO,1620269367
Te Anau,-45.4167,167.7167,286.28,67,17,0.23,NZ,1620269367
Mareeba,-17.0,145.4333,302.59,51,66,1.54,AU,1620269367
Quelimane,-17.8786,36.8883,291.15,94,0,0.88,MZ,1620269368
Alpena,45.0617,-83.4327,279.15,56,1,2.06,US,1620269368
Pochutla,15.7432,-96.4661,300.93,76,95,2.24,MX,1620269368
Paamiut,61.994,-49.6678,276.12,72,43,3.3,GL,1620269369
Yumen,40.2833,97.2,291.17,9,14,3.31,CN,1620269369
Hamilton,39.1834,-84.5333,282.59,81,1,2.84,US,1620269105
Turukhansk,65.8167,87.9833,273.07,66,71,1.11,RU,1620269369
Kavieng,-2.5744,150.7967,302.38,73,100,2.58,PG,1620269370
Vostok,46.4856,135.8833,281.41,77,94,5.57,RU,1620269370
Santa Maria,-29.6842,-53.8069,287.15,88,90,2.57,BR,1620269186
Ferme-Neuve,46.7001,-75.4493,280.15,76,100,4.63,CA,1620269370
Ridgecrest,35.6225,-117.6709,307.15,7,20,5.14,US,1620269212
Kilrush,52.6397,-9.4833,274.15,86,0,3.09,IE,1620269371
Uglegorskiy,48.2427,41.2531,281.87,69,6,3.27,RU,1620269371
Rumonge,-3.9736,29.4386,294.13,84,41,2.04,BI,1620269371
Dunmore Town,25.5,-76.65,298.88,82,21,4.56,BS,1620269372
Mount Isa,-20.7333,139.5,298.15,14,97,3.6,AU,1620269372
Kiryat Gat,31.61,34.7642,292.04,67,16,1.63,IL,1620269347
Marechal Cândido Rondon,-24.5561,-54.0567,292.54,93,82,4.56,BR,1620269372
Laguna,38.421,-121.4238,306.15,16,1,6.69,US,1620269373
Lagoa,39.05,-27.9833,289.44,92,16,8.06,PT,1620269373
Rawson,-43.3002,-65.1023,284.2,52,66,2.5,AR,1620269373
Sirte,31.2089,16.5887,293.1,66,99,4.38,LY,1620269374
Vodnyy,63.5046,53.4095,274.14,78,71,4.71,RU,1620269374
São José da Coroa Grande,-8.8978,-35.1478,297.77,83,25,2.99,BR,1620269374
Ussel,45.55,2.3167,281.48,34,100,1.52,FR,1620269374
Srednekolymsk,67.45,153.6833,272.34,81,48,0.85,RU,1620269375
Ahipara,-35.1667,173.1667,291.97,58,9,1.18,NZ,1620269375
Plettenberg Bay,-34.0527,23.3716,289.5,92,25,2.69,ZA,1620269375
St. Pete Beach,27.7253,-82.7412,300.15,83,20,3.6,US,1620269376
Norman Wells,65.282,-126.8329,282.15,49,40,4.63,CA,1620269376
Buşayrā,30.7376,35.6078,290.71,28,12,1.96,JO,1620269376
Port Lincoln,-34.7333,135.8667,293.64,41,81,6.78,AU,1620269377
Laas,46.6166,10.7002,277.59,75,0,1.54,IT,1620269377
Nichinan,31.6,131.3667,293.15,42,75,1.54,JP,1620269377
Balclutha,-46.2339,169.75,287.17,74,73,1.8,NZ,1620269378
Coruripe,-10.1256,-36.1756,296.98,82,71,2.11,BR,1620269378
Mossamedes,-15.1961,12.1522,295.57,86,100,1.17,AO,1620269378
Kloulklubed,7.0419,134.2556,299.15,94,90,3.6,PW,1620269379
Estelle,29.8458,-90.1067,296.15,94,75,3.6,US,1620269379
Port Augusta,-32.5,137.7667,294.15,30,40,6.69,AU,1620269379
Itaituba,-4.2761,-55.9836,297.15,100,75,2.06,BR,1620269380
Isaka,-3.9,32.9333,289.81,89,17,1.79,TZ,1620269380
Nabire,-3.3667,135.4833,303.04,69,98,1.93,ID,1620269184
Maniitsoq,65.4167,-52.9,273.16,80,92,5.5,GL,1620269380
La Asuncion,11.0333,-63.8628,304.15,66,21,5.66,VE,1620269381
Puro,12.4841,123.3827,303.46,67,98,6.05,PH,1620269381
Nkhotakota,-12.9274,34.2961,291.91,72,17,4.64,MW,1620269381
Bilibino,68.0546,166.4372,272.21,82,100,0.52,RU,1620269382
Cubará,7.0008,-72.1085,295.31,96,74,1.34,CO,1620269382
Millington,35.3415,-89.8973,287.04,82,1,2.22,US,1620269327
Kumluca,36.3703,30.2869,294.91,53,79,1.45,TR,1620269383
Snezhnogorsk,69.1933,33.2531,272.15,93,40,1.0,RU,1620269383
Taywarah,33.35,64.4167,281.85,63,34,1.0,AF,1620269383
Tigzirt,36.8886,4.1198,288.85,93,100,4.23,DZ,1620269383
Mikuni,36.2171,136.1519,292.15,59,20,5.66,JP,1620269384
Chicama,-7.8447,-79.1469,292.15,88,90,4.63,PE,1620269384
Ketchikan,55.3422,-131.6461,287.15,44,90,5.14,US,1620269384
Honningsvåg,70.9821,25.9704,274.14,79,100,3.78,NO,1620269385
Arlit,18.7369,7.3853,302.02,6,100,4.73,NE,1620269385
Nouakchott,18.0858,-15.9785,294.15,83,0,6.69,MR,1620269385
Beloha,-25.1667,45.05,290.63,94,14,1.54,MG,1620269385
Dingle,10.9995,122.6711,305.53,54,89,7.05,PH,1620269386
Amurzet,47.6967,131.0981,288.26,40,68,5.49,RU,1620269386
Okhotsk,59.3833,143.3,275.92,83,100,2.63,RU,1620269386
Chingola,-12.529,27.8838,288.62,75,99,2.05,ZM,1620269387
Ipirá,-12.1583,-39.7372,293.41,94,98,2.47,BR,1620269387
Felanitx,39.4696,3.1483,285.93,93,20,0.51,ES,1620269387
Wajir,1.7471,40.0573,297.09,77,95,5.38,KE,1620269388
Bereda,43.2686,-7.5406,288.15,88,40,5.14,ES,1620269388
Verkhnevilyuysk,63.4453,120.3167,281.04,67,46,3.49,RU,1620269388
Bestöbe,52.4994,73.0975,293.98,35,100,3.99,KZ,1620269389
Warsaw,52.2298,21.0118,280.37,70,75,5.66,PL,1620269357
Mahajanga,-15.7167,46.3167,294.15,83,20,1.54,MG,1620269389
Kutum,14.2,24.6667,296.7,39,8,2.04,SD,1620269389
Gerāsh,27.6652,54.1371,291.15,63,0,0.52,IR,1620269390
Banjarmasin,-3.3244,114.591,300.15,89,20,1.54,ID,1620269122
Erenhot,43.6475,111.9767,274.24,73,100,11.42,CN,1620269390
Luebo,-5.35,21.4167,294.26,99,100,0.5,CD,1620269390
Lakes Entrance,-37.8811,147.981,291.48,87,45,0.45,AU,1620269391
Belaya Gora,68.5333,146.4167,273.6,97,100,2.84,RU,1620269391
Tiznit Province,29.5833,-9.5,288.62,81,0,0.74,MA,1620269391
Namwala,-15.7504,26.4384,285.92,83,2,2.11,ZM,1620269391
Brezovo,42.35,25.0833,284.26,93,20,3.09,BG,1620269392
Kaeo,-35.1,173.7833,294.26,65,6,2.24,NZ,1620269392
Lavrentiya,65.5833,-171.0,271.32,75,2,2.28,RU,1620269392
São Filipe,14.8961,-24.4956,295.03,77,91,2.71,CV,1620269393
Bathsheba,13.2167,-59.5167,299.15,65,40,9.26,BB,1620269393
Boguchany,58.3814,97.4531,275.83,92,100,1.81,RU,1620269393
Muros,42.7762,-9.0603,288.15,90,100,2.89,ES,1620269393
Srīvardhan,18.0333,73.0167,303.62,61,15,3.2,IN,1620269394
Kasongo-Lunda,-6.4667,16.8167,294.19,98,100,0.38,CD,1620269394
Guerrero Negro,27.9769,-114.0611,290.3,84,5,5.27,MX,1620269394
Kargil,34.5667,76.1,277.31,63,23,1.26,IN,1620269394
San Policarpo,12.1791,125.5072,301.07,86,88,6.0,PH,1620269395
Tolaga Bay,-38.3667,178.3,290.37,58,45,2.43,NZ,1620269395
Zelenoborskiy,66.845,32.3622,272.04,100,100,2.07,RU,1620269395
Jega,12.2175,4.3792,303.78,32,60,5.71,NG,1620269396
Bandarbeyla,9.4942,50.8122,301.43,71,29,1.53,SO,1620269396
Newnan,33.3807,-84.7997,289.26,90,0,3.14,US,1620269396
Mbandaka,0.0487,18.2603,294.54,96,100,2.04,CD,1620269397
Neyshabur,36.2133,58.7958,288.71,60,15,1.34,IR,1620269397
Klyuchi,52.2667,79.1667,290.4,50,100,3.72,RU,1620269397
Ichinohe,40.2069,141.3017,291.77,38,2,6.36,JP,1620269397
Tyler,32.3513,-95.3011,294.15,52,1,1.54,US,1620269192
Igrim,63.1906,64.4162,274.55,96,100,5.7,RU,1620269398
Villacarrillo,38.1156,-3.0848,285.89,45,0,0.57,ES,1620269398
Sola,-13.8833,167.55,300.78,72,99,2.72,VU,1620269398
Bella Vista,36.4295,-94.2316,290.15,36,1,1.54,US,1620269399
Bagaces,10.5271,-85.2548,297.15,94,0,1.03,CR,1620269399
Kearney,40.6995,-99.0815,289.15,41,40,4.63,US,1620269134
Zharkovskiy,55.849,32.2697,281.27,92,100,4.78,RU,1620269399
Dhangadhi,28.7079,80.5961,303.18,46,3,2.33,NP,1620269399
Kara-Tyube,44.6336,45.4369,284.77,59,50,2.97,RU,1620269400
Trincomalee,8.5711,81.2335,301.9,76,88,2.64,LK,1620269400
Epe,6.5841,3.9834,298.52,93,100,2.38,NG,1620269400
Vao,-22.6667,167.4833,296.97,79,17,4.65,NC,1620269401
Nuevo Progreso,23.1667,-97.95,298.15,68,33,0.89,MX,1620269401
Sosnovo-Ozerskoye,52.5249,111.5418,279.04,48,98,4.54,RU,1620269401
Honiara,-9.4333,159.95,303.38,65,100,1.96,SB,1620269402
Mulegé,26.8833,-111.9833,295.71,64,0,0.36,MX,1620269402
Artyom,40.4723,50.333,286.15,71,0,3.09,AZ,1620269402
Nizhniy Kuranakh,58.8353,125.4869,275.34,100,100,0.84,RU,1620269403
Buraidah,26.326,43.975,295.15,46,0,1.54,SA,1620269403
Innisfail,-17.5333,146.0333,298.63,52,76,3.46,AU,1620269403
Grindavik,63.8424,-22.4338,274.15,80,0,4.63,IS,1620269403
Quang Ngai,15.1167,108.8,305.14,56,100,2.47,VN,1620269404
Yaan,7.3833,8.5667,297.97,82,59,4.72,NG,1620269404
Makkah al Mukarramah,21.4267,39.8261,302.36,32,3,2.21,SA,1620269348
Boa Vista,2.8197,-60.6733,298.15,83,0,2.06,BR,1620269405
Sakakah,29.9697,40.2064,295.15,20,0,2.57,SA,1620269405
Canutama,-6.5339,-64.3831,296.07,98,24,1.01,BR,1620269405
Springbok,-29.6643,17.8865,280.12,94,30,1.14,ZA,1620269406
Sur,22.5667,59.5289,302.71,68,48,3.23,OM,1620269406
Buluang,13.3068,123.3425,305.73,54,99,1.63,PH,1620269406
Rabaul,-4.1967,152.1721,302.03,70,76,0.81,PG,1620269406
Saýat,38.7839,63.8803,295.15,40,75,2.06,TM,1620269407
Moerai,-22.4333,-151.3333,297.0,71,100,6.36,PF,1620269407
Marzuq,14.4,46.4667,298.02,53,99,1.51,YE,1620269407
Mehamn,71.0357,27.8492,272.52,90,100,2.0,NO,1620269408
Rocha,-34.4833,-54.3333,281.89,72,25,3.21,UY,1620269126
Olafsvik,64.8945,-23.7142,274.59,65,20,5.74,IS,1620269408
Palamós,41.8484,3.1291,284.82,93,20,1.53,ES,1620269408
Pingliang,35.5392,106.6861,295.5,13,0,4.44,CN,1620269409
Vila Velha,-20.3297,-40.2925,294.15,94,0,1.54,BR,1620269409
Ibb,13.9667,44.1833,291.43,66,100,1.09,YE,1620269409
Meulaboh,4.1363,96.1285,299.01,86,100,3.2,ID,1620269409
Hofn,64.2539,-15.2082,274.22,60,52,6.67,IS,1620269410
Mango,27.9797,-82.3065,300.15,89,1,2.49,US,1620269410
Nioro,13.35,-15.75,297.93,37,77,3.98,GM,1620269410
Haines Junction,60.7522,-137.5108,282.15,31,100,1.54,CA,1620269411
Zlatica,43.1146,19.2668,275.62,92,20,1.51,ME,1620269411
Shar,49.5886,81.0453,294.31,32,95,5.61,KZ,1620269411
Denpasar,-8.65,115.2167,302.42,69,100,4.18,ID,1620269175
Inhambane,-23.865,35.3833,291.93,79,11,1.53,MZ,1620269412
Barra Patuca,15.8,-84.2833,300.33,75,45,6.1,HN,1620269412
Derzhavīnsk,51.1,66.3167,286.48,53,93,8.15,KZ,1620269412
Esfarāyen,37.0765,57.5101,286.15,88,40,3.09,IR,1620269413
Teya,60.3778,92.6267,274.92,90,97,1.34,RU,1620269413
Comrat,46.3003,28.6572,283.47,79,100,4.3,MD,1620269413
Lazarev,52.225,141.5131,273.17,98,100,2.15,RU,1620269414
Yinchuan,38.4681,106.2731,289.4,14,0,5.23,CN,1620269414
Fairbanks,64.8378,-147.7164,286.15,47,20,3.09,US,1620269189
Booué,-0.0921,11.9385,295.73,98,100,0.86,GA,1620269414
Baykit,61.67,96.37,276.55,64,84,1.75,RU,1620269415
Junín,-34.5838,-60.9433,278.71,44,85,1.56,AR,1620269415
Pedernales,18.0384,-71.744,299.3,69,10,2.39,DO,1620269415
Shirokiy,49.758,129.523,286.97,50,99,4.14,RU,1620269415
Santiago del Estero,-27.7951,-64.2615,283.88,71,100,2.85,AR,1620269397
Tiksi,71.6872,128.8694,268.84,91,100,5.1,RU,1620269416
Tūkrah,32.5341,20.5791,295.95,38,99,1.92,LY,1620269416
Clarence Town,-32.5833,151.7833,294.15,83,75,3.6,AU,1620269417
Krasnosel'kup,65.7,82.4667,273.47,91,98,7.67,RU,1620269417
Soe,-9.8607,124.284,299.14,55,18,3.3,ID,1620269417
Belmonte,-15.8631,-38.8828,297.15,88,40,1.54,BR,1620269417
Adrar,20.5022,-10.0711,295.19,18,5,4.81,MR,1620269418
Bemidji,47.4736,-94.8803,281.15,46,75,2.57,US,1620269418
Destin,30.3935,-86.4958,296.48,94,1,3.28,US,1620269418
Kirakira,-10.4544,161.9205,302.68,68,100,2.41,SB,1620269419
Antón Lizardo,19.05,-95.9833,300.93,78,75,9.26,MX,1620269419
Maragogi,-9.0122,-35.2225,297.51,84,28,2.76,BR,1620269375
Puerto Peñasco,31.3167,-113.5333,296.48,62,0,0.45,MX,1620269419
Celestún,20.8667,-90.4,298.14,88,89,5.49,MX,1620269419
Saint-François,46.4154,3.9054,280.37,87,75,1.54,FR,1620269420
Súchil,23.6333,-103.9167,292.15,23,22,1.22,MX,1620269420
Gijang,35.2442,129.2139,295.15,20,0,2.57,KR,1620269420
Kanniyākumāri,8.0833,77.5667,302.16,70,85,0.89,IN,1620269421
Puerto Madero,14.7208,-92.4215,298.15,100,75,2.06,MX,1620269421
Cockburn Town,21.4612,-71.1419,299.19,78,2,8.54,TC,1620269421
Manokwari,-0.8667,134.0833,301.92,70,53,2.51,ID,1620269357
Kendari,-3.945,122.4989,299.95,86,93,1.06,ID,1620269179
Seminole,28.7086,-81.2081,300.93,78,40,2.57,US,1620269185
San Carlos,9.6612,-68.5827,296.7,91,99,1.42,VE,1620269422
Yeniseysk,58.4497,92.1703,278.47,91,100,1.23,RU,1620269422
Mezen',65.8522,44.24,272.91,78,100,3.63,RU,1620269422
Cayenne,4.9333,-52.3333,298.15,94,0,1.03,GF,1620269423
Port Blair,11.6667,92.75,300.15,89,75,1.03,IN,1620269423
Kalianget,-7.05,113.9333,302.17,70,98,2.46,ID,1620269423
Puerto Carreño,6.189,-67.4859,298.93,80,100,1.96,CO,1620269424
Monteagudo,-19.8167,-63.9833,282.39,98,100,2.22,BO,1620269424
Domoni,-12.2569,44.5319,298.95,75,97,6.82,KM,1620269424
Los Algarrobos,8.5,-82.4333,290.37,95,99,1.33,PA,1620269425
Kirkwall,58.9848,-2.9587,279.15,81,75,5.66,GB,1620269425
Fountain Hills,33.6117,-111.7174,307.15,8,1,2.57,US,1620269425
Zhob,31.3411,69.4481,295.73,29,79,0.8,PK,1620269425
Otane,-39.8833,176.6333,291.48,73,53,1.34,NZ,1620269131
Balad,34.0164,44.1453,299.76,26,5,1.03,IQ,1620269426
Opuwo,-18.0607,13.84,292.88,62,100,1.38,NA,1620269426
Bulgan,48.8125,103.5347,276.92,29,59,3.38,MN,1620269426
Gainesville,29.6516,-82.3248,299.15,78,1,2.06,US,1620269306
Coquimbo,-29.9533,-71.3436,288.15,77,0,3.09,CL,1620269427
Warrnambool,-38.3833,142.4833,289.82,80,98,2.24,AU,1620269427
Tarauacá,-8.1614,-70.7656,295.7,97,100,0.44,BR,1620269332
La Ronge,55.1001,-105.2842,281.15,34,2,1.03,CA,1620269427
Acapulco de Juárez,16.8634,-99.8901,299.15,73,20,1.54,MX,1620269266
Atbasar,51.8,68.3333,288.06,58,100,8.19,KZ,1620269428
Rumuruti,0.267,36.5389,287.01,88,69,1.31,KE,1620269428
Kui Buri,12.0828,99.8543,305.37,55,100,1.38,TH,1620269428
Maricá,-22.9194,-42.8186,297.15,78,0,1.54,BR,1620269429
Bone,51.9669,12.1396,276.48,84,4,2.24,DE,1620269429
Achacachi,-16.05,-68.6833,277.96,88,43,2.22,BO,1620269429
Isla Vista,34.4133,-119.861,293.15,88,90,3.09,US,1620269430
Gondanglegi,-7.7479,112.0132,303.37,66,100,3.75,ID,1620269430
Bubaque,11.2833,-15.8333,298.28,70,67,7.66,GW,1620269430
Conakry,9.538,-13.6773,298.89,69,24,2.9,GN,1620269431
Kathmandu,27.7167,85.3167,292.15,77,75,1.03,NP,1620269290
Murud,18.3258,72.965,303.68,62,1,2.29,IN,1620269431
Tiparak,8.0341,123.5288,307.63,45,60,0.35,PH,1620269431
Senneterre,48.3835,-77.2328,277.15,75,75,3.6,CA,1620269432
Harar,9.3094,42.1258,288.15,91,90,2.74,ET,1620269432
Madimba,-10.4,40.3333,295.05,80,65,5.68,TZ,1620269432
Singaparna,-7.3515,108.111,302.09,64,94,1.61,ID,1620269432
St. George's,12.0564,-61.7485,299.15,83,20,6.69,GD,1620269433
Port Hedland,-20.3167,118.5667,302.15,70,40,0.51,AU,1620269433
Christchurch,-43.5333,172.6333,290.37,55,58,4.63,NZ,1620269289
El Alto,-4.2714,-81.2147,293.83,79,98,4.53,PE,1620269433
Phuthaditjhaba,-28.5242,28.8158,281.63,68,0,1.22,ZA,1620269434
Nome,64.5011,-165.4064,278.71,56,1,2.06,US,1620269434
